{"type":"FeatureCollection","features":[{"type":"Feature","geometry":{"type":"Point","coordinates":[-3.3085209589787,55.928264478237]},"properties":{"id":"1.00000","hotel":"Premier Inn Edinburgh Park","owner":"Whitbread","streetno1":"1.00000","street":"Lochside Way","grade":"n\/a","rooms":"120.00000"}},{"type":"Feature","geometry":{"type":"Point","coordinates":[-3.3708695980688,55.903998751748]},"properties":{"id":"2.00000","hotel":"Marriott Dalmahoy Hotel & Country Club","street":"Long Dalmahoy, Kirknewton","postcode":"EH278EB","grade":"4* HO","rooms":"203.00000"}},{"type":"Feature","geometry":{"type":"Point","coordinates":[-3.2073462224516,55.949694792106]},"properties":{"id":"3.00000","hotel":"Caledonian Hotel","owner":"Hilton","streetno1":"4.00000","street":"Lothian Road    (\/Princes Street)","postcode":"EH12AB","grade":"5* HO","rooms":"235.00000"}},{"type":"Feature","geometry":{"type":"Point","coordinates":[-3.1694450277671,55.92644653505]},"properties":{"id":"4.00000","hotel":"Glenisla Hotel","streetno1":"12.00000","street":"Lygon Road","postcode":"EH165QB","grade":"3","rooms":"10.00000"}},{"type":"Feature","geometry":{"type":"Point","coordinates":[-3.2172943782603,55.950315754167]},"properties":{"id":"5.00000","hotel":"Thistle Hotel","streetno1":"59.00000","street":"Manor Place","postcode":"EH37EG","grade":"3","rooms":"11.00000"}},{"type":"Feature","geometry":{"type":"Point","coordinates":[-3.1684049970672,55.936025932864]},"properties":{"id":"6.00000","hotel":"Ceilidh-Donia Hotel [formerly Marchhall Hotel]","streetno1":"14.00000","street":"Marchhall Crescent","streetno2":"-","streetno3":"16","postcode":"EH165HL","grade":"3","rooms":"17.00000"}},{"type":"Feature","geometry":{"type":"Point","coordinates":[-3.1903767384276,55.950911198214]},"properties":{"id":"7.00000","hotel":"St. Christopher's Inn [formerly Station Hotel]","owner":"St. Christopher's Inns","streetno1":"9.00000","street":"Market Street","streetno2":"to","streetno3":"13","postcode":"EH11DE","grade":"n\/a"}},{"type":"Feature","geometry":{"type":"Point","coordinates":[-3.1915225365915,55.950675487028]},"properties":{"id":"8.00000","hotel":"Motel One","streetno1":"18.00000","street":"Market Street \/ 6 Cockburn Street","streetno2":"to","streetno3":"21","postcode":"EH11BL","grade":"n\/a","rooms":"208.00000"}},{"type":"Feature","geometry":{"type":"Point","coordinates":[-3.1735995682182,55.933640333855]},"properties":{"id":"9.00000","hotel":"Ivy Guest House","streetno1":"7.00000","street":"Mayfield Gardens","postcode":"EH92AX","grade":"n\/a","rooms":"8.00000"}},{"type":"Feature","geometry":{"type":"Point","coordinates":[-3.1734989349003,55.933488539435]},"properties":{"id":"10.00000","hotel":"Ben Doran Guest House","streetno1":"11.00000","street":"Mayfield Gardens","postcode":"EH92AX","grade":"4*GH","rooms":"10.00000"}},{"type":"Feature","geometry":{"type":"Point","coordinates":[-3.1732526502383,55.933284219337]},"properties":{"id":"11.00000","hotel":"Allison House Hotel","streetno1":"17.00000","street":"Mayfield Gardens","postcode":"EH92AX","grade":"4* GH","rooms":"11.00000"}},{"type":"Feature","geometry":{"type":"Point","coordinates":[-3.172444918395,55.932510173132]},"properties":{"id":"12.00000","hotel":"Barony Guest House","streetno1":"23.00000","street":"Mayfield Gardens","postcode":"EH92BX","grade":"4*GH","rooms":"9.00000"}},{"type":"Feature","geometry":{"type":"Point","coordinates":[-3.1723285617538,55.932367512888]},"properties":{"id":"13.00000","hotel":"Glenalmond Guest House","streetno1":"25.00000","street":"Mayfield Gardens","postcode":"EH92BX","grade":"GH 4*","rooms":"10.00000"}},{"type":"Feature","geometry":{"type":"Point","coordinates":[-3.1725973319176,55.93172698601]},"properties":{"id":"14.00000","hotel":"Arrandale Guest House","streetno1":"28.00000","street":"Mayfield Gardens","postcode":"EH92BZ","grade":"3*GH","rooms":"6.00000"}},{"type":"Feature","geometry":{"type":"Point","coordinates":[-3.1717847613967,55.931851529214]},"properties":{"id":"15.00000","hotel":"Alba Hills Guest House [formerly Rimswell House Hotel]","streetno1":"33.00000","street":"Mayfield Gardens","streetno2":"to","streetno3":"35","postcode":"EH92BX","grade":"n\/a","rooms":"9.00000"}},{"type":"Feature","geometry":{"type":"Point","coordinates":[-3.1717012264531,55.931735512602]},"properties":{"id":"16.00000","hotel":"International Guest House","streetno1":"37.00000","street":"Mayfield Gardens","postcode":"EH92BX","grade":"n\/a","rooms":"9.00000"}},{"type":"Feature","geometry":{"type":"Point","coordinates":[-3.176985857421,55.931289773073]},"properties":{"id":"17.00000","hotel":"Lauderville Guest House","streetno1":"52.00000","street":"Mayfield Road","postcode":"EH92NH","grade":"n\/a","rooms":"10.00000"}},{"type":"Feature","geometry":{"type":"Point","coordinates":[-3.0955665390786,55.944485526731]},"properties":{"id":"18.00000","hotel":"Best Western Kings Manor Hotel","owner":"S. Solley Hotels Ltd.","streetno1":"100.00000","street":"Milton Road East","postcode":"EH152NP","grade":"4","rooms":"95.00000"}},{"type":"Feature","geometry":{"type":"Point","coordinates":[-3.1756269410221,55.935570851411]},"properties":{"id":"19.00000","hotel":"Thrums Hotel","streetno1":"14.00000","street":"Minto Street","streetno2":"to","streetno3":"15","postcode":"EH91RQ","grade":"3* GH","rooms":"14.00000"}},{"type":"Feature","geometry":{"type":"Point","coordinates":[-3.1752170619076,55.935251285066]},"properties":{"id":"20.00000","hotel":"Edinburgh's Minto Hotel","streetno1":"16.00000","street":"Minto Street","streetno2":"to","streetno3":"18","postcode":"EH99RQ","grade":"3","rooms":"23.00000"}},{"type":"Feature","geometry":{"type":"Point","coordinates":[-3.1353397913607,55.956534297462]},"properties":{"id":"21.00000","hotel":"Ellwyn Hotel","streetno1":"37.00000","street":"Moira Terrace","streetno2":"to","streetno3":"39","postcode":"EH76TD","grade":"n\/a","rooms":"12.00000"}},{"type":"Feature","geometry":{"type":"Point","coordinates":[-3.2139036462763,55.945847467451]},"properties":{"id":"22.00000","hotel":"Premier Inn Edinburgh Haymarket","owner":"Whitbread Bowland Inns","streetno1":"1.00000","street":"Morrison Link","postcode":"EH38DN","grade":"n\/a","rooms":"282.00000"}},{"type":"Feature","geometry":{"type":"Point","coordinates":[-3.2371592352378,55.946523691547]},"properties":{"id":"23.00000","hotel":"The Avenue Hotel","streetno1":"4.00000","street":"Murrayfield Avenue","postcode":"EH126AX","grade":"2","rooms":"6.00000"}},{"type":"Feature","geometry":{"type":"Point","coordinates":[-3.2398966031065,55.946999365568]},"properties":{"id":"24.00000","hotel":"Craigelachie Hotel","streetno1":"21.00000","street":"Murrayfield Avenue","postcode":"EH126AU","grade":"4* GH","rooms":"8.00000"}},{"type":"Feature","geometry":{"type":"Point","coordinates":[-3.2386514922739,55.947622905381]},"properties":{"id":"25.00000","hotel":"Beverley Hotel","streetno1":"40.00000","street":"Murrayfield Avenue","postcode":"EH126AY","grade":"4* GH","rooms":"8.00000"}},{"type":"Feature","geometry":{"type":"Point","coordinates":[-3.1780730669651,55.950759880193]},"properties":{"id":"26.00000","hotel":"Holyrood Aparthotel","owner":"Hotel Connections","streetno1":"1.00000","street":"Nether Bakehouse","postcode":"EH88PE","grade":"4* SA","rooms":"40.00000"}},{"type":"Feature","geometry":{"type":"Point","coordinates":[-3.0945125266574,55.934934454803]},"properties":{"id":"27.00000","hotel":"Premier Inn Edinburgh Newcraighall","owner":"Whitbread Group","streetno1":"91.00000","street":"Newcraighall Road","postcode":"EH16","grade":"n\/a","rooms":"42.00000"}},{"type":"Feature","geometry":{"type":"Point","coordinates":[-3.3875457819701,55.989751544554]},"properties":{"id":"28.00000","hotel":"Hawes Inn","owner":"Innkeeper's Lodge","street":"Newhalls Road","postcode":"EH309TA","grade":"1","rooms":"14.00000"}},{"type":"Feature","geometry":{"type":"Point","coordinates":[-3.1951761213422,55.984524249012]},"properties":{"id":"29.00000","hotel":"Premier Inn Edinburgh Leith","owner":"Whitbread Group","streetno1":"51.00000","street":"Newhaven Place","streetno2":"-","streetno3":"53","postcode":"EH64TX","grade":"n\/a","rooms":"84.00000"}},{"type":"Feature","geometry":{"type":"Point","coordinates":[-3.1796330797927,55.938866168307]},"properties":{"id":"30.00000","hotel":"Southside Guest House","streetno1":"8.00000","street":"Newington Road","postcode":"EH91QS","grade":"4* GH","rooms":"8.00000"}},{"type":"Feature","geometry":{"type":"Point","coordinates":[-3.1876139364764,55.951162494095]},"properties":{"id":"31.00000","hotel":"Barcelo Edinburgh Carlton Hotel","owner":"Dawnay Shore Hotels","streetno1":"19.00000","street":"North Bridge","postcode":"EH11SD","grade":"5","rooms":"189.00000"}},{"type":"Feature","geometry":{"type":"Point","coordinates":[-3.1887340719718,55.951133722104]},"properties":{"id":"32.00000","hotel":"Scotsman Hotel","streetno1":"20.00000","street":"North Bridge","postcode":"EH11TR","grade":"n\/a","rooms":"68.00000"}},{"type":"Feature","geometry":{"type":"Point","coordinates":[-3.1792474306334,55.978846112422]},"properties":{"id":"33.00000","hotel":"Holiday Inn Express","owner":"Holiday Inn \/ Somerston Hotels (Edinburgh Waterfront)","streetno1":"101.00000","street":"Ocean Drive","postcode":"EH66LA","grade":"3* HO","rooms":"145.00000"}},{"type":"Feature","geometry":{"type":"Point","coordinates":[-3.148269758069,55.922063166679]},"properties":{"id":"34.00000","hotel":"Arden Guest House","streetno1":"126.00000","street":"Old Dalkeith Road","postcode":"EH16  4SD","grade":"n\/a","rooms":"8.00000"}},{"type":"Feature","geometry":{"type":"Point","coordinates":[-3.1482692267574,55.922045200709]},"properties":{"id":"35.00000","hotel":"Aaron Lodge","streetno1":"128.00000","street":"Old Dalkeith Road","postcode":"EH164SD","grade":"n\/a","rooms":"10.00000"}},{"type":"Feature","geometry":{"type":"Point","coordinates":[-3.2185539548121,55.949629391162]},"properties":{"id":"36.00000","hotel":"West End Hotel","streetno1":"37.00000","street":"Palmerston Place","postcode":"EH125AU","grade":"n\/a","rooms":"8.00000"}},{"type":"Feature","geometry":{"type":"Point","coordinates":[-3.1862605285838,55.957177819329]},"properties":{"id":"37.00000","hotel":"Holiday Inn Express","streetno1":"16.00000","street":"Picardy Place","streetno2":"to","streetno3":"22","postcode":"EH13JT","grade":"n\/a","rooms":"150.00000"}},{"type":"Feature","geometry":{"type":"Point","coordinates":[-3.1818539437537,55.96657400831]},"properties":{"id":"38.00000","hotel":"Edinburgh House Hotel [formerly Balfour House Hotel]","streetno1":"92.00000","street":"Pilrig Street","postcode":"EH65AY","grade":"n\/a","rooms":"24.00000"}},{"type":"Feature","geometry":{"type":"Point","coordinates":[-3.2256900203569,55.931695380621]},"properties":{"id":"39.00000","hotel":"Lindsay Guest House","streetno1":"108.00000","street":"Polwarth Terrace","postcode":"EH111NN","grade":"3*GH","rooms":"7.00000"}},{"type":"Feature","geometry":{"type":"Point","coordinates":[-3.1678148081827,55.935564284711]},"properties":{"id":"40.00000","hotel":"Ard Na Said Guest House","streetno1":"5.00000","street":"Priestfield Road","postcode":"EH165HH","grade":"4*GH","rooms":"6.00000"}},{"type":"Feature","geometry":{"type":"Point","coordinates":[-3.1672614406487,55.935794165715]},"properties":{"id":"41.00000","hotel":"Dorstan House Hotel","streetno1":"7.00000","street":"Priestfield Road","postcode":"EH165HJ","grade":"3* GH","rooms":"14.00000"}},{"type":"Feature","geometry":{"type":"Point","coordinates":[-3.1572632565958,55.936562400913]},"properties":{"id":"42.00000","hotel":"Prestonfield House Hotel","street":"Priestfield Road","postcode":"EH165UT","grade":"5* HO","rooms":"24.00000"}},{"type":"Feature","geometry":{"type":"Point","coordinates":[-3.1895079586176,55.952869434773]},"properties":{"id":"43.00000","hotel":"Balmoral Hotel","streetno1":"1.00000","street":"Princes Street","postcode":"EH22EQ","grade":"5* HO","rooms":"168.00000"}},{"type":"Feature","geometry":{"type":"Point","coordinates":[-3.1907865780927,55.95330635877]},"properties":{"id":"44.00000","hotel":"Royal British Hotel","owner":"Cairn Hotel Group","streetno1":"20.00000","street":"Princes Street","postcode":"EH22AN","grade":"3","rooms":"72.00000"}},{"type":"Feature","geometry":{"type":"Point","coordinates":[-3.1919962104416,55.953061041273]},"properties":{"id":"45.00000","hotel":"Travelodge Edinburgh Central Princes Street","owner":"Arcadia Group Ltd.","streetno1":"30.00000","street":"Princes Street","streetno2":"-","streetno3":"31","postcode":"EH22BY","grade":"n\/a","rooms":"95.00000"}},{"type":"Feature","geometry":{"type":"Point","coordinates":[-3.1929999019494,55.952889589589]},"properties":{"id":"46.00000","hotel":"Old Waverley Hotel","owner":"Paramount Hotel Group","streetno1":"42.00000","street":"Princes Street","streetno2":"to","streetno3":"44","postcode":"EH22BY","grade":"3* HO","rooms":"66.00000"}},{"type":"Feature","geometry":{"type":"Point","coordinates":[-3.1039655849607,55.949864680954]},"properties":{"id":"47.00000","hotel":"Robert Burns Hotel  [formerly at Craigalon House]","streetno1":"39.00000","street":"Abercorn Terrace","postcode":"EH152DG","grade":"n\/a","rooms":"16.00000"}},{"type":"Feature","geometry":{"type":"Point","coordinates":[-3.1978160130174,55.956374159657]},"properties":{"id":"48.00000","hotel":"Royal Scots Club","streetno1":"30.00000","street":"Abercromby Place","postcode":"EH36QE","grade":"3*HO","rooms":"25.00000"}},{"type":"Feature","geometry":{"type":"Point","coordinates":[-3.2027261368564,55.93755564189]},"properties":{"id":"49.00000","hotel":"Links Hotel","streetno1":"4.00000","street":"Alvanley Terrace","streetno2":"-","streetno3":"6","postcode":"EH91DU","grade":"n\/a","rooms":"22.00000"}},{"type":"Feature","geometry":{"type":"Point","coordinates":[-3.2261240354381,55.938340359269]},"properties":{"id":"50.00000","hotel":"Ardmillan Hotel [formerly Nirvana Hotel]","streetno1":"9.00000","street":"Ardmillan Terrace","streetno2":"to","streetno3":"10","postcode":"EH112JW","grade":"2* SH","rooms":"7.00000"}},{"type":"Feature","geometry":{"type":"Point","coordinates":[-3.2223292117602,55.95051750579]},"properties":{"id":"51.00000","hotel":"Travelodge Edinburgh West End [formerly Belford Hotel]","owner":"Menzies Hotels plc \/ Travelodge","streetno1":"69.00000","street":"Belford Road","postcode":"EH43DG","grade":"4* HO","rooms":"173.00000"}},{"type":"Feature","geometry":{"type":"Point","coordinates":[-3.1858906891198,55.949274171883]},"properties":{"id":"52.00000","hotel":"Smart City Hostel","owner":"Europa Inns (UK) Ltd.","streetno1":"40.00000","street":"Blackfriars Street","streetno2":"to","streetno3":"50","postcode":"EH11NE","grade":"n\/a","rooms":"49.00000"}},{"type":"Feature","geometry":{"type":"Point","coordinates":[-3.2126020137173,55.917007761122]},"properties":{"id":"53.00000","hotel":"Best Western Braid Hills Hotel","streetno1":"134.00000","street":"Braid Road","postcode":"EH106JD","grade":"3* HO","rooms":"68.00000"}},{"type":"Feature","geometry":{"type":"Point","coordinates":[-3.2126741702431,55.943397545365]},"properties":{"id":"54.00000","hotel":"Staycity.com Edinburgh","owner":"AMA (New Town) Ltd.","streetno1":"9.00000","street":"Brandfield Street","streetno2":",","streetno3":"13","postcode":"EH38AS","grade":"SA","rooms":"74.00000"}},{"type":"Feature","geometry":{"type":"Point","coordinates":[-3.2032817488827,55.945664122975]},"properties":{"id":"55.00000","hotel":"Mercure Point Hotel","streetno1":"34.00000","street":"Bread Street","streetno2":"to","streetno3":"58","postcode":"EH39AF","grade":"3* HO","rooms":"139.00000"}},{"type":"Feature","geometry":{"type":"Point","coordinates":[-3.1872586112597,55.958911386213]},"properties":{"id":"56.00000","hotel":"Broughton Hotel","streetno1":"37.00000","street":"Broughton Place","postcode":"EH13RR","grade":"3* GH","rooms":"6.00000"}},{"type":"Feature","geometry":{"type":"Point","coordinates":[-3.1795657911225,55.958769609019]},"properties":{"id":"57.00000","hotel":"No. 11 [formerly Clan Campbell Hotel]","streetno1":"11.00000","street":"Brunswick Street","postcode":"EH75JB","grade":"3* SH","rooms":"10.00000"}},{"type":"Feature","geometry":{"type":"Point","coordinates":[-3.2058990414228,55.938171581728]},"properties":{"id":"58.00000","hotel":"Best Western Bruntsfield Hotel","owner":"Queensferry Hotels","streetno1":"69.00000","street":"Bruntsfield Place","postcode":"EH104HH","grade":"4* HO","rooms":"74.00000"}},{"type":"Feature","geometry":{"type":"Point","coordinates":[-3.4051585658515,55.984304402078]},"properties":{"id":"59.00000","hotel":"Premier Inn Edinburgh South Queensferry [formerly Queen's Crossing (Travel Inn)]","owner":"Whitbread Group","streetno1":"2.00000","street":"Builyeon Road","postcode":"EH309--","grade":"n\/a","rooms":"40.00000"}},{"type":"Feature","geometry":{"type":"Point","coordinates":[-3.18610580741,55.95421410703]},"properties":{"id":"60.00000","hotel":"Parliament House Hotel","owner":"Adam Hotels","streetno1":"15.00000","street":"Calton Hill","postcode":"EH13BJ","grade":"3* HO","rooms":"53.00000"}},{"type":"Feature","geometry":{"type":"Point","coordinates":[-3.1986530833987,55.96272773255]},"properties":{"id":"61.00000","hotel":"Canon Court Apartments","streetno1":"20.00000","street":"Canonmills","postcode":"EH35HA","grade":"4* SA","rooms":"32.00000"}},{"type":"Feature","geometry":{"type":"Point","coordinates":[-3.2027288103622,55.952103132002]},"properties":{"id":"62.00000","hotel":"Castle View Guest House","streetno1":"30.00000","street":"Castle Street","postcode":"EH23HT","grade":"3*GH","rooms":"18.00000"}},{"type":"Feature","geometry":{"type":"Point","coordinates":[-3.1958029699952,55.948747070667]},"properties":{"id":"63.00000","hotel":"The Witchery","street":"Castlehill, Royal Mile","postcode":"EH12NF","grade":"n\/a","rooms":"8.00000"}},{"type":"Feature","geometry":{"type":"Point","coordinates":[-3.2060303293984,55.951666515782]},"properties":{"id":"64.00000","hotel":"Roxburghe Hotel","owner":"Paragon Hotels \/ Macdonald Hotels","streetno1":"38.00000","street":"Charlotte Square","postcode":"EH24HG","grade":"4* HO","rooms":"198.00000"}},{"type":"Feature","geometry":{"type":"Point","coordinates":[-3.2158526973261,55.950303031776]},"properties":{"id":"65.00000","hotel":"Chester Residence","streetno1":"9.00000","street":"Chester Street","postcode":"EH37RF","grade":"SA 5*","rooms":"5.00000"}},{"type":"Feature","geometry":{"type":"Point","coordinates":[-3.1918496662966,55.963925882815]},"properties":{"id":"66.00000","hotel":"Claremont Hotel","streetno1":"14.00000","street":"Claremont Crescent","streetno2":"to","streetno3":"15","postcode":"EH74HX","grade":"1* SH","rooms":"24.00000"}},{"type":"Feature","geometry":{"type":"Point","coordinates":[-3.2797257306688,55.955883214576]},"properties":{"id":"67.00000","hotel":"Best Western Edinburgh Capital","owner":"Portland Hotels","streetno1":"187.00000","street":"Clermiston Road","postcode":"EH126UG","grade":"3* HO","rooms":"111.00000"}},{"type":"Feature","geometry":{"type":"Point","coordinates":[-3.2172346623211,55.946371706151]},"properties":{"id":"68.00000","hotel":"Guards Hotel [formerly Clifton Private Hotel]","streetno1":"1.00000","street":"Clifton Terrace","postcode":"EH125DR","grade":"2","rooms":"11.00000"}},{"type":"Feature","geometry":{"type":"Point","coordinates":[-3.2175351426603,55.946251925635]},"properties":{"id":"69.00000","hotel":"West End Hostel","owner":"Shielcroft Ltd.","streetno1":"3.00000","street":"Clifton Terrace","streetno2":"to","streetno3":"4","postcode":"EH125DR","grade":"n\/a","rooms":"8.00000"}},{"type":"Feature","geometry":{"type":"Point","coordinates":[-3.2181400467157,55.946138120553]},"properties":{"id":"70.00000","hotel":"Tune Hotel Edinburgh Haymarket","owner":"TP Hotel (Edinburgh) Ltd.","streetno1":"7.00000","street":"Clifton Terrace","streetno2":"-","streetno3":"8","postcode":"EH12 5DR","grade":"n\/a","rooms":"179.00000"}},{"type":"Feature","geometry":{"type":"Point","coordinates":[-3.2218248923046,55.946200475588]},"properties":{"id":"71.00000","hotel":"Haymarket & Buchan Hotel","streetno1":"1.00000","street":"Coates Gardens","streetno2":"-","streetno3":"3","postcode":"EH125LG","grade":"3* HO","rooms":"25.00000"}},{"type":"Feature","geometry":{"type":"Point","coordinates":[-3.2212539931134,55.946376860377]},"properties":{"id":"72.00000","hotel":"Piries Hotel","streetno1":"4.00000","street":"Coates Gardens","streetno2":"to","streetno3":"8","postcode":"EH125LB","grade":"3* HO","rooms":"32.00000"}},{"type":"Feature","geometry":{"type":"Point","coordinates":[-3.2218665271546,55.946505570267]},"properties":{"id":"73.00000","hotel":"Boisdale Hotel","streetno1":"9.00000","street":"Coates Gardens","postcode":"EH125LG","grade":"3* GH","rooms":"10.00000"}},{"type":"Feature","geometry":{"type":"Point","coordinates":[-3.2218539146696,55.946613521534]},"properties":{"id":"74.00000","hotel":"Lairg Hotel","streetno1":"11.00000","street":"Coates Gardens","postcode":"EH125LG","grade":"3*GH","rooms":"10.00000"}},{"type":"Feature","geometry":{"type":"Point","coordinates":[-3.2212782019173,55.946637200369]},"properties":{"id":"75.00000","hotel":"Argus Hotel","streetno1":"14.00000","street":"Coates Gardens","postcode":"EH125LB","grade":"3","rooms":"11.00000"}},{"type":"Feature","geometry":{"type":"Point","coordinates":[-3.2213311456834,55.94730160368]},"properties":{"id":"76.00000","hotel":"No. 32 [formerly Beresford Hotel]","streetno1":"32.00000","street":"Coates Gardens","postcode":"EH125LE","grade":"3* GH","rooms":"10.00000"}},{"type":"Feature","geometry":{"type":"Point","coordinates":[-3.2213359536564,55.947454309765]},"properties":{"id":"77.00000","hotel":"St Valery Guest House","streetno1":"36.00000","street":"Coates Gardens","postcode":"EH125LE","grade":"n\/a","rooms":"11.00000"}},{"type":"Feature","geometry":{"type":"Point","coordinates":[-3.1884625012835,55.950633155433]},"properties":{"id":"78.00000","hotel":"Edinburgh Backpackers Hostel","streetno1":"65.00000","street":"Cockburn Street","postcode":"EH11BU","grade":"HS","rooms":"150.00000"}},{"type":"Feature","geometry":{"type":"Point","coordinates":[-3.2414122741891,55.945824969147]},"properties":{"id":"79.00000","hotel":"Kingsburgh House","streetno1":"2.00000","street":"Corstorphine Road","postcode":"EH126HN","grade":"5*GH","rooms":"6.00000"}},{"type":"Feature","geometry":{"type":"Point","coordinates":[-3.242913216981,55.945693025102]},"properties":{"id":"80.00000","hotel":"Hampton Hotel","streetno1":"14.00000","street":"Corstorphine Road","postcode":"EH126HN","grade":"3* SH","rooms":"6.00000"}},{"type":"Feature","geometry":{"type":"Point","coordinates":[-3.243568649127,55.945659454883]},"properties":{"id":"81.00000","hotel":"Murrayfield Hotel","owner":"Festival Inns","streetno1":"18.00000","street":"Corstorphine Road","postcode":"EH126HN","grade":"1* HO","rooms":"37.00000"}},{"type":"Feature","geometry":{"type":"Point","coordinates":[-3.2547443084012,55.944638609428]},"properties":{"id":"82.00000","hotel":"Western Manor House Hotel","streetno1":"92.00000","street":"Corstorphine Road","postcode":"EH126JG","grade":"n\/a","rooms":"11.00000"}},{"type":"Feature","geometry":{"type":"Point","coordinates":[-3.2671714035129,55.94273228102]},"properties":{"id":"83.00000","hotel":"Holiday Inn","streetno1":"132.00000","street":"Corstorphine Road","postcode":"EH126UA","grade":"4* HO","rooms":"303.00000"}},{"type":"Feature","geometry":{"type":"Point","coordinates":[-3.1926078227605,55.947951373839]},"properties":{"id":"84.00000","hotel":"Budget Backpackers Hostel","streetno1":"37.00000","street":"Cowgate","streetno2":"to","streetno3":"39","postcode":"EH11JR","grade":"n\/a","rooms":"44.00000"}},{"type":"Feature","geometry":{"type":"Point","coordinates":[-3.1904960655793,55.948537880497]},"properties":{"id":"85.00000","hotel":"Cowgate Tourist Hostel","streetno1":"94.00000","street":"Cowgate","streetno2":"-","streetno3":"112","postcode":"EH11JN","grade":"HS","rooms":"170.00000"}},{"type":"Feature","geometry":{"type":"Point","coordinates":[-3.1897345640258,55.948248715005]},"properties":{"id":"86.00000","hotel":"Central Hotel [formerly Tailors' Hall Hotel]","owner":"Festival Inns Ltd.","streetno1":"137.00000","street":"Cowgate","postcode":"EH11JS","grade":"2* IN","rooms":"42.00000"}},{"type":"Feature","geometry":{"type":"Point","coordinates":[-3.184610788594,55.949313439848]},"properties":{"id":"87.00000","hotel":"Express by Holiday Inn","streetno1":"300.00000","street":"Cowgate","postcode":"EH11NQ","grade":"n\/a","rooms":"78.00000"}},{"type":"Feature","geometry":{"type":"Point","coordinates":[-3.1707452087786,55.930819098126]},"properties":{"id":"88.00000","hotel":"Ben Craig Guest House","streetno1":"3.00000","street":"Craigmillar Park","postcode":"EH165PG","grade":"5*GH","rooms":"9.00000"}},{"type":"Feature","geometry":{"type":"Point","coordinates":[-3.1685013961567,55.928594033927]},"properties":{"id":"89.00000","hotel":"Kildonan Lodge Hotel","streetno1":"27.00000","street":"Craigmillar Park","postcode":"EH165PE","grade":"4* SH","rooms":"12.00000"}},{"type":"Feature","geometry":{"type":"Point","coordinates":[-3.1678931578515,55.928060673592]},"properties":{"id":"90.00000","hotel":"Northumberland Hotel","streetno1":"31.00000","street":"Craigmillar Park","streetno2":"to","streetno3":"33","postcode":"EH165PE","grade":"3* SH","rooms":"18.00000"}},{"type":"Feature","geometry":{"type":"Point","coordinates":[-3.1669045112283,55.927117582636]},"properties":{"id":"91.00000","hotel":"Travelodge Edinburgh Cameron Toll","streetno1":"41.00000","street":"Craigmillar Park","streetno2":"-","streetno3":"43","postcode":"EH165PD","grade":"n\/a","rooms":"115.00000"}},{"type":"Feature","geometry":{"type":"Point","coordinates":[-3.1708033644137,55.936461421829]},"properties":{"id":"92.00000","hotel":"94DR [formerly MW Guest House]","streetno1":"94.00000","street":"Dalkeith Road","postcode":"EH165AF","grade":"4*GH","rooms":"6.00000"}},{"type":"Feature","geometry":{"type":"Point","coordinates":[-3.1696440481079,55.936238811916]},"properties":{"id":"93.00000","hotel":"Rosehall Hotel","streetno1":"101.00000","street":"Dalkeith Road","postcode":"EH165AJ","grade":"3* SH","rooms":"10.00000"}},{"type":"Feature","geometry":{"type":"Point","coordinates":[-3.1695613220887,55.936149742638]},"properties":{"id":"94.00000","hotel":"Gifford House","streetno1":"103.00000","street":"Dalkeith Road","postcode":"EH165AJ","grade":"4*GH","rooms":"6.00000"}},{"type":"Feature","geometry":{"type":"Point","coordinates":[-3.22051658365,55.950930836055]},"properties":{"id":"95.00000","hotel":"Belford Backpackers Hostel","streetno1":"7.00000","street":"Douglas Gardens","postcode":"EH43DA","grade":"HS","rooms":"98.00000"}},{"type":"Feature","geometry":{"type":"Point","coordinates":[-3.2333122979375,55.900556177524]},"properties":{"id":"96.00000","hotel":"Travelodge Edinburgh Dreghorn","owner":"Granada","streetno1":"46.00000","street":"Dreghorn Link","streetno2":"to","streetno3":"48","postcode":"EH139QR","grade":"n\/a","rooms":"72.00000"}},{"type":"Feature","geometry":{"type":"Point","coordinates":[-3.2157280806548,55.951436434666]},"properties":{"id":"97.00000","hotel":"The Bonham","owner":"The Town House Company","streetno1":"34.00000","street":"Drumsheugh Gardens","streetno2":"to","streetno3":"35","postcode":"EH37RN","grade":"4* HO","rooms":"48.00000"}},{"type":"Feature","geometry":{"type":"Point","coordinates":[-3.1164637443044,55.943444328511]},"properties":{"id":"98.00000","hotel":"Ardblair Guest House","streetno1":"1.00000","street":"Duddingston Crescent","postcode":"EH15 3AS","grade":"3* GH","rooms":"8.00000"}},{"type":"Feature","geometry":{"type":"Point","coordinates":[-3.19973325236,55.958808543034]},"properties":{"id":"99.00000","hotel":"Walton Hotel","streetno1":"79.00000","street":"Dundas Street","postcode":"EH36SD","grade":"4* GH","rooms":"10.00000"}},{"type":"Feature","geometry":{"type":"Point","coordinates":[-3.1576165537656,55.969328941888]},"properties":{"id":"100.00000","hotel":"Mackenzie Guest House","streetno1":"2.00000","street":"East Hermitage Place","postcode":"EH68AA","grade":"4*GH","rooms":"5.00000"}},{"type":"Feature","geometry":{"type":"Point","coordinates":[-3.3596176576842,55.944011156003]},"properties":{"id":"101.00000","hotel":"Hilton Edinburgh Airport Hotel [formerly Stakis]","street":"Edinburgh Airport \/ Ingliston","postcode":"EH288LL","grade":"4* HO","rooms":"134.00000"}},{"type":"Feature","geometry":{"type":"Point","coordinates":[-3.2219137797183,55.948005682701]},"properties":{"id":"102.00000","hotel":"Travelodge Edinburgh Haymarket [formerly Greens Hotel]","owner":"London & Edinburgh Inns Ltd \/ Travelodge","streetno1":"24.00000","street":"Eglinton Crescent","postcode":"EH125BY","grade":"n\/a","rooms":"72.00000"}},{"type":"Feature","geometry":{"type":"Point","coordinates":[-3.1908328916325,55.955857783742]},"properties":{"id":"103.00000","hotel":"Elder York Guest House","streetno1":"38.00000","street":"Elder Street","postcode":"EH13DX","grade":"3*GH","rooms":"13.00000"}},{"type":"Feature","geometry":{"type":"Point","coordinates":[-3.2477741446608,55.946973754573]},"properties":{"id":"104.00000","hotel":"Ellersly House Hotel","owner":"Ramada Jarvis (Jarvis Hotels)","streetno1":"4.00000","street":"Ellersly Road","postcode":"EH126HZ","grade":"2* HO","rooms":"57.00000"}},{"type":"Feature","geometry":{"type":"Point","coordinates":[-3.2211082766755,55.934625239669]},"properties":{"id":"105.00000","hotel":"Royal Ettrick Hotel","owner":"Festival Hotels Ltd","streetno1":"13.00000","street":"Ettrick Road","postcode":"EH105BJ","grade":"3","rooms":"18.00000"}},{"type":"Feature","geometry":{"type":"Point","coordinates":[-3.2004868864421,55.960903804017]},"properties":{"id":"106.00000","hotel":"Dene Guest House","streetno1":"7.00000","street":"Eyre Place","postcode":"EH35ES","grade":"3*GH","rooms":"11.00000"}},{"type":"Feature","geometry":{"type":"Point","coordinates":[-3.2002795419082,55.960932780043]},"properties":{"id":"107.00000","hotel":"Ardenlee Guest House","streetno1":"9.00000","street":"Eyre Place","postcode":"EH35ES","grade":"3*GH","rooms":"9.00000"}},{"type":"Feature","geometry":{"type":"Point","coordinates":[-3.2001202383973,55.960961287892]},"properties":{"id":"108.00000","hotel":"Abercraig Guest House [formerly Relax Guest House]","streetno1":"11.00000","street":"Eyre Place","postcode":"EH35ES","grade":"2*GH","rooms":"10.00000"}},{"type":"Feature","geometry":{"type":"Point","coordinates":[-3.1889900239564,55.974107056295]},"properties":{"id":"109.00000","hotel":"A Haven Townhouse","owner":"Minotel","streetno1":"180.00000","street":"Ferry Road","postcode":"EH64NS","grade":"3* HO","rooms":"14.00000"}},{"type":"Feature","geometry":{"type":"Point","coordinates":[-3.1915127813946,55.973813132437]},"properties":{"id":"110.00000","hotel":"Bonnington Guest House","streetno1":"202.00000","street":"Ferry Road","postcode":"EH64NW","grade":"4*GH","rooms":"7.00000"}},{"type":"Feature","geometry":{"type":"Point","coordinates":[-3.1914644484392,55.973283458638]},"properties":{"id":"111.00000","hotel":"Victoria Park Hotel","streetno1":"221.00000","street":"Ferry Road","postcode":"EH64NN","grade":"n\/a","rooms":"10.00000"}},{"type":"Feature","geometry":{"type":"Point","coordinates":[-3.2027231782209,55.972059917307]},"properties":{"id":"112.00000","hotel":"Ravensdown Guest House","streetno1":"248.00000","street":"Ferry Road","postcode":"EH53AN","grade":"3*GH","rooms":"7.00000"}},{"type":"Feature","geometry":{"type":"Point","coordinates":[-3.4003468378021,55.9837750852]},"properties":{"id":"113.00000","hotel":"Dakota","street":"Ferrymuir, South Queensferry","postcode":"EH309QZ","grade":"n\/a","rooms":"132.00000"}},{"type":"Feature","geometry":{"type":"Point","coordinates":[-3.2074524855395,55.946935203637]},"properties":{"id":"114.00000","hotel":"Sheraton Grand Hotel","streetno1":"1.00000","street":"Festival Square","postcode":"EH39SR","grade":"5* HO","rooms":"261.00000"}},{"type":"Feature","geometry":{"type":"Point","coordinates":[-3.1902932962136,55.946104775401]},"properties":{"id":"115.00000","hotel":"Hotel Du Vin","streetno1":"2.00000","street":"Forrest Rd \/ 11B Bristo Place","postcode":"EH12QN","grade":"n\/a","rooms":"47.00000"}},{"type":"Feature","geometry":{"type":"Point","coordinates":[-3.1880345402961,55.957574060554]},"properties":{"id":"116.00000","hotel":"Regent House Hotel [formerly Victoria Hotel]","streetno1":"3.00000","street":"Forth Street","postcode":"EH13JX","grade":"n\/a","rooms":"18.00000"}},{"type":"Feature","geometry":{"type":"Point","coordinates":[-3.200926309775,55.953369694324]},"properties":{"id":"117.00000","hotel":"Frederick House Hotel","streetno1":"42.00000","street":"Frederick Street","postcode":"EH21EX","grade":"n\/a","rooms":"45.00000"}},{"type":"Feature","geometry":{"type":"Point","coordinates":[-3.2006741523006,55.954019106107]},"properties":{"id":"118.00000","hotel":"Rick's Edinburgh Hotel","owner":"Montpeliers Edinburgh Ltd.","streetno1":"55.00000","street":"Frederick Street","streetno2":"A","postcode":"EH21LH","grade":"n\/a","rooms":"10.00000"}},{"type":"Feature","geometry":{"type":"Point","coordinates":[-3.1928468709913,55.94895543335]},"properties":{"id":"119.00000","hotel":"Missoni Hotel \/ Rezidor","streetno1":"1.00000","street":"George IV Bridge \/ Lawnmarket \/ Melbourne Place","postcode":"EH1","grade":"n\/a","rooms":"136.00000"}},{"type":"Feature","geometry":{"type":"Point","coordinates":[-3.1960596218359,55.953434999104]},"properties":{"id":"120.00000","hotel":"Le Monde","owner":"Saltire Taverns","streetno1":"16.00000","street":"George Street","postcode":"EH22SL","grade":"5*","rooms":"18.00000"}},{"type":"Feature","geometry":{"type":"Point","coordinates":[-3.1963796202617,55.953944064734]},"properties":{"id":"121.00000","hotel":"George Hotel","streetno1":"19.00000","street":"George Street","streetno2":"to","streetno3":"21","postcode":"EH22PB","grade":"4* HO","rooms":"241.00000"}},{"type":"Feature","geometry":{"type":"Point","coordinates":[-3.2052538403781,55.95244686518]},"properties":{"id":"122.00000","hotel":"Tigerlily","owner":"Montpeliers (Edinburgh) Ltd.","streetno1":"125.00000","street":"George Street","postcode":"EH24JN","grade":"n\/a","rooms":"33.00000"}},{"type":"Feature","geometry":{"type":"Point","coordinates":[-3.312073977038,55.940096726719]},"properties":{"id":"123.00000","hotel":"Edinburgh Marriott [formerly Royal Scot]","owner":"Whitbread","streetno1":"111.00000","street":"Glasgow Road","postcode":"EH128NF","grade":"4* HO","rooms":"245.00000"}},{"type":"Feature","geometry":{"type":"Point","coordinates":[-3.3931288227959,55.938604762181]},"properties":{"id":"124.00000","hotel":"Travelodge Edinburgh Airport","streetno1":"72.00000","street":"Glasgow Road (land adjacent to), Edinburgh","grade":"n\/a","rooms":"97.00000"}},{"type":"Feature","geometry":{"type":"Point","coordinates":[-3.2069581469442,55.956779158798]},"properties":{"id":"125.00000","hotel":"Nira Caledonia [formerly Christopher North House Hotel]","streetno1":"4.00000","street":"Gloucester Place","streetno2":"to","streetno3":"10","postcode":"EH36EF","grade":"3* SH","rooms":"27.00000"}},{"type":"Feature","geometry":{"type":"Point","coordinates":[-3.1817771848623,55.932519840386]},"properties":{"id":"126.00000","hotel":"Teviotdale House","streetno1":"53.00000","street":"Grange Loan","postcode":"EH92ER","grade":"4* GH","rooms":"7.00000"}},{"type":"Feature","geometry":{"type":"Point","coordinates":[-3.1965990608646,55.947041085817]},"properties":{"id":"127.00000","hotel":"Apex International Hotel","streetno1":"31.00000","street":"Grassmarket","streetno2":"to","streetno3":"35","postcode":"EH12HS","grade":"4* HO","rooms":"171.00000"}},{"type":"Feature","geometry":{"type":"Point","coordinates":[-3.1953380224758,55.947170137318]},"properties":{"id":"128.00000","hotel":"Apex City Hotel","streetno1":"61.00000","street":"Grassmarket","postcode":"EH12JF","grade":"4* HO","rooms":"119.00000"}},{"type":"Feature","geometry":{"type":"Point","coordinates":[-3.1950747832127,55.947981384159]},"properties":{"id":"129.00000","hotel":"Grassmarket Hotel [formerly Thistle Inn Hotel]","owner":"Festival Inns","streetno1":"94.00000","street":"Grassmarket","postcode":"EH12JR","grade":"2","rooms":"45.00000"}},{"type":"Feature","geometry":{"type":"Point","coordinates":[-3.1989280666723,55.958151454356]},"properties":{"id":"130.00000","hotel":"Howard Hotel","owner":"The Town House Company","streetno1":"34.00000","street":"Great King Street","postcode":"EH36QH","grade":"5* SH","rooms":"18.00000"}},{"type":"Feature","geometry":{"type":"Point","coordinates":[-3.1859370639178,55.956551950639]},"properties":{"id":"131.00000","hotel":"The Glasshouse","owner":"Eton Group","streetno1":"2.00000","street":"Greenside Place","postcode":"EH13AA","grade":"5* HO","rooms":"65.00000"}},{"type":"Feature","geometry":{"type":"Point","coordinates":[-3.2181246028332,55.948195955167]},"properties":{"id":"132.00000","hotel":"Ballantrae West End Hotel","owner":"Ballantrae Hotel Group","streetno1":"6.00000","street":"Grosvenor Crescent","postcode":"EH125EP","grade":"3","rooms":"10.00000"}},{"type":"Feature","geometry":{"type":"Point","coordinates":[-3.2196442816662,55.946617442875]},"properties":{"id":"133.00000","hotel":"Grosvenor Gardens Guest House","streetno1":"1.00000","street":"Grosvenor Gardens","postcode":"EH125JU","grade":"3* GH","rooms":"8.00000"}},{"type":"Feature","geometry":{"type":"Point","coordinates":[-3.217097414129,55.947100888281]},"properties":{"id":"134.00000","hotel":"Hilton Edinburgh Grosvenor Hotel [formerly Stakis]","streetno1":"11.00000","street":"Grosvenor Street","streetno2":"to","streetno3":"17","postcode":"EH125EF","grade":"3* HO","rooms":"186.00000"}},{"type":"Feature","geometry":{"type":"Point","coordinates":[-3.217665805386,55.946843678122]},"properties":{"id":"135.00000","hotel":"Ritz Hotel","streetno1":"14.00000","street":"Grosvenor Street","streetno2":"to","streetno3":"18","postcode":"EH125EG","grade":"2* HO","rooms":"36.00000"}},{"type":"Feature","geometry":{"type":"Point","coordinates":[-3.2115854171991,55.944423619]},"properties":{"id":"136.00000","hotel":"iQ Grove [term-time student accommodation]","owner":"Kay Haven Developments Ltd.","streetno1":"55.00000","street":"Grove Street","postcode":"EH38AB","grade":"SA","rooms":"321.00000"}},{"type":"Feature","geometry":{"type":"Point","coordinates":[-3.2113728786236,55.943257592941]},"properties":{"id":"137.00000","hotel":"Brooks Hotel [formerly Herald House Hotel]","streetno1":"70.00000","street":"Grove Street","postcode":"EH38AP","grade":"2* HO","rooms":"45.00000"}},{"type":"Feature","geometry":{"type":"Point","coordinates":[-3.211210269057,55.943690495964]},"properties":{"id":"138.00000","hotel":"Grove Executive [Fountain Court Apartments]","owner":"Triple Crown","streetno1":"113.00000","street":"Grove Street","streetno2":",","streetno3":"117","postcode":"EH38AA","grade":"SA","rooms":"24.00000"}},{"type":"Feature","geometry":{"type":"Point","coordinates":[-3.2110415107756,55.943413604141]},"properties":{"id":"139.00000","hotel":"Fountain Court Apartments","streetno1":"123.00000","street":"Grove Street","postcode":"EH38AA","grade":"4*SA","rooms":"100.00000"}},{"type":"Feature","geometry":{"type":"Point","coordinates":[-3.1830776085301,55.95994898064]},"properties":{"id":"140.00000","hotel":"Scottish Youth Hostels Association","streetno1":"9.00000","street":"Haddington Place","postcode":"EH7 4AL","grade":"n\/a","rooms":"301.00000"}},{"type":"Feature","geometry":{"type":"Point","coordinates":[-3.2287505338575,55.945448702873]},"properties":{"id":"141.00000","hotel":"Dunstane City Hotel","streetno1":"5.00000","street":"Hampton Terrace","grade":"n\/a","rooms":"18.00000"}},{"type":"Feature","geometry":{"type":"Point","coordinates":[-3.228992064822,55.945491221525]},"properties":{"id":"142.00000","hotel":"The Lodge Hotel","streetno1":"6.00000","street":"Hampton Terrace","postcode":"EH125JD","grade":"4* GH","rooms":"12.00000"}},{"type":"Feature","geometry":{"type":"Point","coordinates":[-3.2266928298917,55.936582517731]},"properties":{"id":"143.00000","hotel":"Kirklea Guest House","streetno1":"11.00000","street":"Harrison Road","postcode":"EH111EG","grade":"3*GH","rooms":"6.00000"}},{"type":"Feature","geometry":{"type":"Point","coordinates":[-3.2229465537686,55.946225289611]},"properties":{"id":"144.00000","hotel":"Apex European Hotel","owner":"Apex Hotels","streetno1":"90.00000","street":"Haymarket Terrace","postcode":"EH125LQ","grade":"4* HO","rooms":"66.00000"}},{"type":"Feature","geometry":{"type":"Point","coordinates":[-3.1640053576794,55.969196888191]},"properties":{"id":"145.00000","hotel":"Merith House Hotel","streetno1":"2.00000","street":"Hermitage Place","streetno2":"to","streetno3":"3","postcode":"EH68AF","grade":"1","rooms":"10.00000"}},{"type":"Feature","geometry":{"type":"Point","coordinates":[-3.1647880499095,55.969117610613]},"properties":{"id":"146.00000","hotel":"Culane House Hotel","streetno1":"9.00000","street":"Hermitage Place","postcode":"EH68AF","grade":"n\/a","rooms":"10.00000"}},{"type":"Feature","geometry":{"type":"Point","coordinates":[-3.1655699284731,55.969011379493]},"properties":{"id":"147.00000","hotel":"Park View House Hotel","streetno1":"14.00000","street":"Hermitage Place","postcode":"EH68AF","grade":"n\/a","rooms":"16.00000"}},{"type":"Feature","geometry":{"type":"Point","coordinates":[-3.1866523876509,55.950093501773]},"properties":{"id":"148.00000","hotel":"Radisson SAS [formerly Crowne Plaza]","owner":"Radisson SAS","streetno1":"80.00000","street":"High Street","postcode":"EH11TH","grade":"4* HO","rooms":"228.00000"}},{"type":"Feature","geometry":{"type":"Point","coordinates":[-3.1861698325944,55.950547421388]},"properties":{"id":"149.00000","hotel":"Brodies Hostel","streetno1":"93.00000","street":"High Street","postcode":"EH11SG","grade":"HS","rooms":"130.00000"}},{"type":"Feature","geometry":{"type":"Point","coordinates":[-3.3967758810781,55.99053689758]},"properties":{"id":"150.00000","hotel":"Stag Head Hotel","streetno1":"8.00000","street":"High Street, South Queensferry","postcode":"EH309PP","grade":"n\/a","rooms":"5.00000"}},{"type":"Feature","geometry":{"type":"Point","coordinates":[-3.3964149157311,55.990307358794]},"properties":{"id":"151.00000","hotel":"Orocco Pier Hotel [formerly Queensferry Arms Hotel]","streetno1":"17.00000","street":"High Street, South Queensferry","postcode":"EH309PP","grade":"2","rooms":"15.00000"}},{"type":"Feature","geometry":{"type":"Point","coordinates":[-3.1837819849235,55.946293302546]},"properties":{"id":"152.00000","hotel":"Ten Hill Place","owner":"Royal College of Surgeons of Edinburgh","streetno1":"10.00000","street":"Hill Place","postcode":"EH89DS","grade":"n\/a","rooms":"78.00000"}},{"type":"Feature","geometry":{"type":"Point","coordinates":[-3.1807625357572,55.958093225063]},"properties":{"id":"153.00000","hotel":"Two Hillside Crescent","streetno1":"2.00000","street":"Hillside Crescent","postcode":"EH7  5DY","grade":"n\/a","rooms":"5.00000"}},{"type":"Feature","geometry":{"type":"Point","coordinates":[-3.1711570483292,55.938102400567]},"properties":{"id":"154.00000","hotel":"Salisbury Green Hotel","owner":"Edinburgh University","streetno1":"18.00000","street":"Holyrood Park Road \/ Dalkeith Road","postcode":"EH165AW","grade":"3* HO","rooms":"36.00000"}},{"type":"Feature","geometry":{"type":"Point","coordinates":[-3.1769901316983,55.950958923602]},"properties":{"id":"155.00000","hotel":"Holyrood Hotel","owner":"Macdonald Hotels","streetno1":"81.00000","street":"Holyrood Road","postcode":"EH88UA","grade":"4* HO","rooms":"157.00000"}},{"type":"Feature","geometry":{"type":"Point","coordinates":[-3.2077957446342,55.95075966039]},"properties":{"id":"156.00000","hotel":"Hudson Hotel","owner":"Festival Hotels Ltd.","streetno1":"7.00000","street":"Hope Street","streetno2":"to","streetno3":"11","postcode":"EH24EL","grade":"n\/a","rooms":"33.00000"}},{"type":"Feature","geometry":{"type":"Point","coordinates":[-3.1835382701959,55.961921356155]},"properties":{"id":"157.00000","hotel":"Cameron Hotel","streetno1":"17.00000","street":"Hopetoun Crescent","postcode":"EH74AY","grade":"n\/a"}},{"type":"Feature","geometry":{"type":"Point","coordinates":[-3.1880634637368,55.949630630931]},"properties":{"id":"158.00000","hotel":"Hotel Ibis","streetno1":"6.00000","street":"Hunter Square","postcode":"EH11QW","grade":"2* HO","rooms":"97.00000"}},{"type":"Feature","geometry":{"type":"Point","coordinates":[-3.3842214267678,55.932603846788]},"properties":{"id":"159.00000","hotel":"Norton House Hotel","owner":"Hand Picked Hotels","street":"Ingliston","postcode":"EH288LX","grade":"4* HO","rooms":"83.00000"}},{"type":"Feature","geometry":{"type":"Point","coordinates":[-3.3751115815467,55.943398897472]},"properties":{"id":"160.00000","hotel":"Quality Hotel (formerly Royal Highland Lodge)","owner":"Ingliston Hotels Ltd.","streetno1":"101.00000","street":"Ingliston Road \/ Royal Highland Showground","postcode":"EH288NF","grade":"3* HO","rooms":"100.00000"}},{"type":"Feature","geometry":{"type":"Point","coordinates":[-3.2026162037989,55.963965059656]},"properties":{"id":"161.00000","hotel":"Inverleith Hotel [formerly Lovat Hotel]","streetno1":"5.00000","street":"Inverleith Terrace","postcode":"EH35NS","grade":"3* SH","rooms":"10.00000"}},{"type":"Feature","geometry":{"type":"Point","coordinates":[-3.1863648962679,55.951165540651]},"properties":{"id":"162.00000","hotel":"Jurys Inn","owner":"Jurys","streetno1":"43.00000","street":"Jeffrey Street","postcode":"EH11DH","grade":"3* HO","rooms":"186.00000"}},{"type":"Feature","geometry":{"type":"Point","coordinates":[-3.0880170585954,55.948766556657]},"properties":{"id":"163.00000","hotel":"Rockville House Hotel","streetno1":"2.00000","street":"Joppa Pans","postcode":"EH152HF","grade":"n\/a","rooms":"6.00000"}},{"type":"Feature","geometry":{"type":"Point","coordinates":[-3.0961795347546,55.948613343695]},"properties":{"id":"164.00000","hotel":"Seahaven Hotel","streetno1":"89.00000","street":"Joppa Road","streetno2":"to","streetno3":"91","postcode":"EH152HB","grade":"1","rooms":"13.00000"}},{"type":"Feature","geometry":{"type":"Point","coordinates":[-3.2299516435537,55.945454689625]},"properties":{"id":"165.00000","hotel":"Kew House","streetno1":"1.00000","street":"Kew Terrace","postcode":"EH125JE","grade":"n\/a","rooms":"6.00000"}},{"type":"Feature","geometry":{"type":"Point","coordinates":[-3.4100196202823,55.944343206611]},"properties":{"id":"166.00000","hotel":"Premier Inn Edinburgh Airport (Newbridge)","owner":"Whitbread","streetno1":"2.00000","street":"Kirkliston Road","streetno2":"A","postcode":"EH288SN","grade":"n\/a","rooms":"119.00000"}},{"type":"Feature","geometry":{"type":"Point","coordinates":[-3.3094804624823,55.89644498583]},"properties":{"id":"167.00000","hotel":"Riccarton Arms Hotel","streetno1":"198.00000","street":"Lanark Road West","postcode":"EH145NX","grade":"2* IN","rooms":"5.00000"}},{"type":"Feature","geometry":{"type":"Point","coordinates":[-3.153321656562,55.907351666314]},"properties":{"id":"168.00000","hotel":"Northfield House Hotel","streetno1":"115.00000","street":"Lasswade Road","postcode":"EH166UD","grade":"n\/a","rooms":"4.00000"}},{"type":"Feature","geometry":{"type":"Point","coordinates":[-3.1927744537407,55.944517307246]},"properties":{"id":"169.00000","hotel":"Marriott Residence Inn Edinburgh","streetno1":"1.00000","street":"Lauriston Place","postcode":"EH39EE","grade":"SA 5*","rooms":"112.00000"}},{"type":"Feature","geometry":{"type":"Point","coordinates":[-3.2009377434826,55.944429023355]},"properties":{"id":"170.00000","hotel":"Best Western Edinburgh City Hotel [formerly Simpson Hotel]","owner":"Bonnington House Ltd.","streetno1":"79.00000","street":"Lauriston Place","postcode":"EH39HY","grade":"n\/a","rooms":"52.00000"}},{"type":"Feature","geometry":{"type":"Point","coordinates":[-3.1998403152944,55.945185511065]},"properties":{"id":"171.00000","hotel":"Novotel","owner":"Accor","streetno1":"80.00000","street":"Lauriston Place","postcode":"EH39DG","grade":"4* HO","rooms":"180.00000"}},{"type":"Feature","geometry":{"type":"Point","coordinates":[-3.2001535132722,55.944957823412]},"properties":{"id":"172.00000","hotel":"Premier Inn Edinburgh City Lauriston Place","owner":"Whitbread Group","streetno1":"82.00000","street":"Lauriston Place","postcode":"EH39HZ","grade":"2","rooms":"112.00000"}},{"type":"Feature","geometry":{"type":"Point","coordinates":[-3.201640919307,55.945419557145]},"properties":{"id":"173.00000","hotel":"The Knight Residence","streetno1":"12.00000","street":"Lauriston Street","postcode":"EH39DJ","grade":"5*SA","rooms":"25.00000"}},{"type":"Feature","geometry":{"type":"Point","coordinates":[-3.2194933457494,55.955568501623]},"properties":{"id":"174.00000","hotel":"Travelodge Edinburgh Learmonth","owner":"Festival Inns","streetno1":"18.00000","street":"Learmonth Terrace","streetno2":"to","streetno3":"20","postcode":"EH41PW","grade":"4","rooms":"68.00000"}},{"type":"Feature","geometry":{"type":"Point","coordinates":[-3.187955335025,55.954465854557]},"properties":{"id":"175.00000","hotel":"Thistle Hotel Edinburgh","owner":"Thistle Hotels (Mount Charlotte)","streetno1":"107.00000","street":"Leith Street","postcode":"EH13SW","grade":"3* HO","rooms":"143.00000"}},{"type":"Feature","geometry":{"type":"Point","coordinates":[-3.181193236958,55.958035184833]},"properties":{"id":"176.00000","hotel":"Hotel Twenty [formerly Richmond House Hotel]","streetno1":"20.00000","street":"Leopold Place","postcode":"EH75LB","grade":"2 SH","rooms":"12.00000"}},{"type":"Feature","geometry":{"type":"Point","coordinates":[-3.1618084360346,55.97180541432]},"properties":{"id":"177.00000","hotel":"Adelphi Hotel [formerly Camore Hotel]","streetno1":"7.00000","street":"Links Gardens","postcode":"EH67JH","grade":"2","rooms":"10.00000"}},{"type":"Feature","geometry":{"type":"Point","coordinates":[-3.1638471628032,55.972999210943]},"properties":{"id":"178.00000","hotel":"Abbot's House Hotel","streetno1":"10.00000","street":"Links Place","postcode":"EH67EZ","grade":"n\/a","rooms":"45.00000"}},{"type":"Feature","geometry":{"type":"Point","coordinates":[-3.1603137295702,55.963624798799]},"properties":{"id":"179.00000","hotel":"Lochend Serviced Apartments","streetno1":"147.00000","street":"Lochend Road","postcode":"EH76ET","grade":"SA 4*","rooms":"42.00000"}},{"type":"Feature","geometry":{"type":"Point","coordinates":[-3.3106643818873,55.926803984815]},"properties":{"id":"180.00000","hotel":"Novotel","owner":"Branded Hotel and Leisure Company Ltd. (applicants)","streetno1":"15.00000","street":"Lochside Avenue","postcode":"EH129DJ","grade":"HO 4*","rooms":"170.00000"}},{"type":"Feature","geometry":{"type":"Point","coordinates":[-3.1944507693388,55.952677853954]},"properties":{"id":"181.00000","hotel":"Ramada Jarvis Mount Royal Hotel","streetno1":"53.00000","street":"Princes Street","postcode":"EH22DG","grade":"3* HO","rooms":"158.00000"}},{"type":"Feature","geometry":{"type":"Point","coordinates":[-3.2001695806981,55.951687796547]},"properties":{"id":"182.00000","hotel":"Royal Overseas League","streetno1":"100.00000","street":"Princes Street","postcode":"EH2 3AB","grade":"3*SH","rooms":"20.00000"}},{"type":"Feature","geometry":{"type":"Point","coordinates":[-3.2127845287617,55.950512978492]},"properties":{"id":"183.00000","hotel":"Premier Inn Princes Street","streetno1":"121.00000","street":"Princes Street","streetno2":"122,","streetno3":"123","postcode":"EH24AD","grade":"n\/a","rooms":"103.00000"}},{"type":"Feature","geometry":{"type":"Point","coordinates":[-3.2043255792788,55.950919422781]},"properties":{"id":"184.00000","hotel":"easyHotel","owner":"Parcotel Ltd","streetno1":"125.00000","street":"Princes Street","streetno2":"A","grade":"n\/a","rooms":"29.00000"}},{"type":"Feature","geometry":{"type":"Point","coordinates":[-3.2001091565712,55.954393014582]},"properties":{"id":"185.00000","hotel":"Travelodge","streetno1":"30.00000","street":"Queen Street","streetno2":"-","streetno3":"31","postcode":"EH2 1JX","grade":"n\/a","rooms":"85.00000"}},{"type":"Feature","geometry":{"type":"Point","coordinates":[-3.2023721433736,55.954029506123]},"properties":{"id":"186.00000","hotel":"Queen's Guest House","streetno1":"45.00000","street":"Queen Street","postcode":"EH23NH","grade":"n\/a","rooms":"13.00000"}},{"type":"Feature","geometry":{"type":"Point","coordinates":[-3.2429171546144,55.95581069969]},"properties":{"id":"187.00000","hotel":"Holiday Inn Edinburgh West","streetno1":"107.00000","street":"Queensferry Road","postcode":"EH43HL","grade":"3* HO","rooms":"101.00000"}},{"type":"Feature","geometry":{"type":"Point","coordinates":[-3.2087243497674,55.950238381559]},"properties":{"id":"188.00000","hotel":"Caledonian Backpackers Hostel","streetno1":"3.00000","street":"Queensferry Street","postcode":"EH24PA","grade":"HS","rooms":"270.00000"}},{"type":"Feature","geometry":{"type":"Point","coordinates":[-3.1100038950146,52.819979362244]},"properties":{"id":"189.00000","hotel":"Travelodge Edinburgh Central Rose Street","streetno1":"39.00000","street":"Rose Street","streetno2":"-","streetno3":"47","postcode":"EH22NH","grade":"n\/a","rooms":"40.00000"}},{"type":"Feature","geometry":{"type":"Point","coordinates":[-3.2194554894416,55.946214963434]},"properties":{"id":"190.00000","hotel":"Glenora Guest House","streetno1":"14.00000","street":"Rosebery Crescent","postcode":"EH125JY","grade":"4* GH","rooms":"11.00000"}},{"type":"Feature","geometry":{"type":"Point","coordinates":[-3.2176823323635,55.95094090627]},"properties":{"id":"191.00000","hotel":"B+B Edinburgh [formerly Melvin House Hotel]","streetno1":"3.00000","street":"Rothesay Terrace","postcode":"EH37RY","grade":"n\/a","rooms":"22.00000"}},{"type":"Feature","geometry":{"type":"Point","coordinates":[-3.2176348677519,55.950959346325]},"properties":{"id":"192.00000","hotel":"The Edinburgh Residence","streetno1":"7.00000","street":"Rothesay Terrace","postcode":"EH37RY","grade":"5*TH","rooms":"29.00000"}},{"type":"Feature","geometry":{"type":"Point","coordinates":[-3.1800338038654,55.956779344185]},"properties":{"id":"193.00000","hotel":"Halcyon Hotel","streetno1":"8.00000","street":"Royal Terrace","postcode":"EH75AB","grade":"1* GH","rooms":"14.00000"}},{"type":"Feature","geometry":{"type":"Point","coordinates":[-3.1799057065071,55.956780570752]},"properties":{"id":"194.00000","hotel":"Abbey Hotel [formerly Greenside Hotel]","streetno1":"9.00000","street":"Royal Terrace","postcode":"EH75AB","grade":"3* SH","rooms":"14.00000"}},{"type":"Feature","geometry":{"type":"Point","coordinates":[-3.1794891167919,55.956775573341]},"properties":{"id":"195.00000","hotel":"Adria Hotel","streetno1":"11.00000","street":"Royal Terrace","streetno2":"to","streetno3":"12","postcode":"EH75AB","grade":"3* GH","rooms":"17.00000"}},{"type":"Feature","geometry":{"type":"Point","coordinates":[-3.1783834577127,55.956759194708]},"properties":{"id":"196.00000","hotel":"Royal Terrace Hotel","owner":"Principal Hotels","streetno1":"17.00000","street":"Royal Terrace","streetno2":"to","streetno3":"22","postcode":"EH75AQ","grade":"4* HO","rooms":"107.00000"}},{"type":"Feature","geometry":{"type":"Point","coordinates":[-3.1777416066389,55.956720403434]},"properties":{"id":"197.00000","hotel":"Ailsa Craig Hotel","streetno1":"24.00000","street":"Royal Terrace","postcode":"EH75AH","grade":"3* SH","rooms":"18.00000"}},{"type":"Feature","geometry":{"type":"Point","coordinates":[-3.175770203436,55.956676330628]},"properties":{"id":"198.00000","hotel":"Terrace Hotel","streetno1":"37.00000","street":"Royal Terrace","postcode":"EH75AH","grade":"2","rooms":"14.00000"}},{"type":"Feature","geometry":{"type":"Point","coordinates":[-3.2078961260148,55.949869112554]},"properties":{"id":"199.00000","hotel":"Rutland Hotel","owner":"Signature Pub Group","streetno1":"3.00000","street":"Rutland Street","postcode":"EH12AE","grade":"n\/a","rooms":"12.00000"}},{"type":"Feature","geometry":{"type":"Point","coordinates":[-3.1770713514241,55.937803427905]},"properties":{"id":"200.00000","hotel":"Salisbury Hotel","streetno1":"43.00000","street":"Salisbury Road","streetno2":"-","streetno3":"45","postcode":"EH165AA","grade":"4*SH","rooms":"18.00000"}},{"type":"Feature","geometry":{"type":"Point","coordinates":[-3.2090232556924,55.949552551398]},"properties":{"id":"201.00000","hotel":"Cityroomz","owner":"Sleeperz Hotels","streetno1":"25.00000","street":"Shandwick Place","streetno2":"A","postcode":"EH24RG","grade":"2","rooms":"74.00000"}},{"type":"Feature","geometry":{"type":"Point","coordinates":[-3.2100655585023,55.949084059434]},"properties":{"id":"202.00000","hotel":"Edinburgh Nights Hostel [formerly City Centre Guest House Hostel]","owner":"Mr. Tullis","streetno1":"85.00000","street":"Shandwick Place","streetno2":"-","streetno3":"87","postcode":"EH24SD","grade":"HS","rooms":"74.00000"}},{"type":"Feature","geometry":{"type":"Point","coordinates":[-3.1872430845481,55.950033898883]},"properties":{"id":"203.00000","hotel":"Bank Hotel","owner":"Festival Inns Ltd.","streetno1":"1.00000","street":"South Bridge","streetno2":"to","streetno3":"3","postcode":"EH11LL","grade":"2* IN","rooms":"9.00000"}},{"type":"Feature","geometry":{"type":"Point","coordinates":[-3.2187774286521,55.956231525874]},"properties":{"id":"204.00000","hotel":"Channings","owner":"The Town House Company","streetno1":"12.00000","street":"South Learmonth Gardens","streetno2":"to","streetno3":"16","postcode":"EH41EZ","grade":"4* HO","rooms":"41.00000"}},{"type":"Feature","geometry":{"type":"Point","coordinates":[-3.170314309418,55.936169548209]},"properties":{"id":"205.00000","hotel":"MW Town House","streetno1":"11.00000","street":"Spence Street","postcode":"EH165AG","grade":"4*GH","rooms":"8.00000"}},{"type":"Feature","geometry":{"type":"Point","coordinates":[-3.191920566646,55.950078596205]},"properties":{"id":"206.00000","hotel":"Fraser Suites","streetno1":"12.00000","street":"St Giles Street","streetno2":"-","streetno3":"26","postcode":"EH1  1PT","grade":"n\/a","rooms":"75.00000"}},{"type":"Feature","geometry":{"type":"Point","coordinates":[-3.1843592574725,55.930059974674]},"properties":{"id":"207.00000","hotel":"Alba Executive Apartments","streetno1":"58.00000","street":"St. Alban's Road","streetno2":"-","streetno3":"62","postcode":"EH92LX","grade":"SA 5*","rooms":"11.00000"}},{"type":"Feature","geometry":{"type":"Point","coordinates":[-3.2763353423725,55.942413048011]},"properties":{"id":"208.00000","hotel":"Tudorbank Lodge","streetno1":"18.00000","street":"St. John's Road","postcode":"EH126NY","grade":"n\/a","rooms":"6.00000"}},{"type":"Feature","geometry":{"type":"Point","coordinates":[-3.2824717629215,55.943023244338]},"properties":{"id":"209.00000","hotel":"The White Lady [formerly the Agenda Hotel; formerly the Westbury Hotel]","streetno1":"92.00000","street":"St. John's Road","streetno2":"to","streetno3":"98","postcode":"EH128AT","grade":"n\/a","rooms":"29.00000"}},{"type":"Feature","geometry":{"type":"Point","coordinates":[-3.2835776540048,55.943056655814]},"properties":{"id":"210.00000","hotel":"Innkeepers Lodge Edinburgh West [formerly Harp Hotel]","streetno1":"116.00000","street":"St. John's Road","postcode":"EH128AX","grade":"n\/a","rooms":"25.00000"}},{"type":"Feature","geometry":{"type":"Point","coordinates":[-3.2892284304076,55.943500848793]},"properties":{"id":"211.00000","hotel":"Corstorphine Lodge Hotel","streetno1":"186.00000","street":"St. John's Road","postcode":"EH12  8SG","grade":"3","rooms":"8.00000"}},{"type":"Feature","geometry":{"type":"Point","coordinates":[-3.1836383472836,55.949457566998]},"properties":{"id":"212.00000","hotel":"Travelodge Edinburgh Central","streetno1":"33.00000","street":"St. Mary's Street","postcode":"EH11TA","grade":"n\/a","rooms":"201.00000"}},{"type":"Feature","geometry":{"type":"Point","coordinates":[-3.2007182526002,55.934232619918]},"properties":{"id":"213.00000","hotel":"Gillis Centre","owner":"Archdiocese of St. Andrews and Edinburgh","streetno1":"100.00000","street":"Strathearn Road","postcode":"EH91BB","grade":"n\/a","rooms":"20.00000"}},{"type":"Feature","geometry":{"type":"Point","coordinates":[-3.1683663099265,55.977799593372]},"properties":{"id":"214.00000","hotel":"Malmaison","streetno1":"1.00000","street":"Tower Place","postcode":"EH67DB","grade":"4* HO","rooms":"100.00000"}},{"type":"Feature","geometry":{"type":"Point","coordinates":[-3.1868067878124,55.953569389944]},"properties":{"id":"215.00000","hotel":"Princes Street Suites","streetno1":"16.00000","street":"Waterloo Place","grade":"SA","rooms":"37.00000"}},{"type":"Feature","geometry":{"type":"Point","coordinates":[-3.187646501762,55.953794921691]},"properties":{"id":"216.00000","hotel":"Travelodge Edinburgh Central","owner":"Craypool Investments","streetno1":"17.00000","street":"Waterloo Place","streetno2":"-","streetno3":"19","postcode":"EH13BG","grade":"n\/a","rooms":"96.00000"}},{"type":"Feature","geometry":{"type":"Point","coordinates":[-3.1864840270224,55.954012785759]},"properties":{"id":"217.00000","hotel":"Apex Waterloo Place","streetno1":"23.00000","street":"Waterloo Place","streetno2":"to","streetno3":"27","postcode":"EH13BH","grade":"n\/a","rooms":"182.00000"}},{"type":"Feature","geometry":{"type":"Point","coordinates":[-3.2279240449044,55.946148827926]},"properties":{"id":"218.00000","hotel":"Cumberland Hotel","streetno1":"1.00000","street":"West Coates","postcode":"EH125JQ","grade":"3* SH","rooms":"10.00000"}},{"type":"Feature","geometry":{"type":"Point","coordinates":[-3.2291057534737,55.946047190082]},"properties":{"id":"219.00000","hotel":"Dunstane House Hotel","streetno1":"4.00000","street":"West Coates","postcode":"EH125JQ","grade":"4* SH","rooms":"20.00000"}},{"type":"Feature","geometry":{"type":"Point","coordinates":[-3.2296983138379,55.946050263029]},"properties":{"id":"220.00000","hotel":"Duthus Lodge Guest House","streetno1":"5.00000","street":"West Coates","postcode":"EH125JG","grade":"3*GH","rooms":"4.00000"}},{"type":"Feature","geometry":{"type":"Point","coordinates":[-3.2249945086319,55.945665814173]},"properties":{"id":"221.00000","hotel":"Original Raj Hotel","streetno1":"6.00000","street":"West Coates","postcode":"EH125JG","grade":"n\/a","rooms":"17.00000"}},{"type":"Feature","geometry":{"type":"Point","coordinates":[-3.1899114833841,55.986372261053]},"properties":{"id":"222.00000","hotel":"Edinburgh Waterfront Apartments \/ Hot-el-Apartments","street":"Western Harbour View","grade":"SA","rooms":"26.00000"}},{"type":"Feature","geometry":{"type":"Point","coordinates":[-3.1372741398011,55.946578600477]},"properties":{"id":"223.00000","hotel":"Premier Inn Edinburgh East","owner":"Whitbread","streetno1":"228.00000","street":"Willowbrae Road","postcode":"EH8 7NG","grade":"n\/a","rooms":"47.00000"}},{"type":"Feature","geometry":{"type":"Point","coordinates":[-3.1826550479031,55.958173917334]},"properties":{"id":"224.00000","hotel":"Lyncliff Hotel","streetno1":"4.00000","street":"Windsor Street","postcode":"EH75JR","grade":"n\/a","rooms":"10.00000"}},{"type":"Feature","geometry":{"type":"Point","coordinates":[-3.1823772275422,55.958518030373]},"properties":{"id":"225.00000","hotel":"Cairn Hotel","streetno1":"10.00000","street":"Windsor Street","streetno2":"to","streetno3":"18","postcode":"EH75JR","grade":"3","rooms":"62.00000"}},{"type":"Feature","geometry":{"type":"Point","coordinates":[-3.1934615772099,55.955922207882]},"properties":{"id":"226.00000","hotel":"Blue Rainbow Apartments [formerly Royal Garden Apartments]","owner":"Blue Rainbow Apartments","street":"York Buildings, Queen Street","postcode":"EH21JB","grade":"n\/a","rooms":"30.00000"}},{"type":"Feature","geometry":{"type":"Point","coordinates":[-3.1901076109435,55.957275508099]},"properties":{"id":"227.00000","hotel":"Ballantrae Albany Hotel [formerly Albany Hotel]","streetno1":"11.00000","street":"York Lane \/ 39-47 Albany Street","streetno2":"to","streetno3":"13","postcode":"EH13QY","grade":"n\/a","rooms":"21.00000"}},{"type":"Feature","geometry":{"type":"Point","coordinates":[-3.1923633958602,55.956148489958]},"properties":{"id":"228.00000","hotel":"Ballantrae Hotel","owner":"Ballantrae Hotel Group","streetno1":"8.00000","street":"York Place","postcode":"EH13EP","grade":"3* SH"}},{"type":"Feature","geometry":{"type":"Point","coordinates":[-3.1902456962134,55.956034180564]},"properties":{"id":"229.00000","hotel":"York House Hotel","streetno1":"27.00000","street":"York Place","grade":"n\/a","rooms":"20.00000"}},{"type":"Feature","geometry":{"type":"Point","coordinates":[-3.1900864052156,55.956062675409]},"properties":{"id":"230.00000","hotel":"The Place [formerly York Place B&B]","owner":"Cameron Guest House Group","streetno1":"34.00000","street":"York Place","streetno2":"-","streetno3":"38","postcode":"EH13HU","grade":"n\/a","rooms":"48.00000"}},{"type":"Feature","geometry":{"type":"Point","coordinates":[-3.1885569793357,55.956329029248]},"properties":{"id":"231.00000","hotel":"Hotel Indigo Edinburgh","owner":"Sojourn Hotels LLP \/ IHG \/ Indigo Hotels","streetno1":"51.00000","street":"York Place","streetno2":"-","streetno3":"59","postcode":"EH13JD","grade":"n\/a","rooms":"60.00000"}},{"type":"Feature","geometry":{"type":"Point","coordinates":[-3.2049790524564,55.95288085596]},"properties":{"id":"232.00000","hotel":"Fountain Court Stewart Apartments","owner":"GSS Developments (Aberdeen) Ltd.","streetno1":"10.00000","street":"Young Street","streetno2":"-","streetno3":"12","postcode":"EH2 4JB","grade":"n\/a","rooms":"31.00000"}}]}
